"name", "latitude", "longitude"
"Brazil", -15.8267, -47.9218
"Argentina", -34.6037, -58.3816
"South Africa", -25.7479, 28.2293
"Australia", -35.2809, 149.1300
"New Zealand", -41.2865, 174.7762
"Fiji", -18.1248, 178.4501
"Japan", 35.6762, 139.6503
"The Netherlands", 52.3667, 4.8945
"Belgium", 50.8503, 4.3517
"Ireland", 53.3498, -6.2603
"Portugal", 38.7223, -9.1393
"United States of America", 38.9072, -77.0369
"England", 51.5074, -0.1278
"Northern Ireland", 54.5973Â° N, 5.9301
